<?xml version='1.0' encoding='UTF-8'?>
<kml xmlns:kml="http://earth.google.com/kml/2.2">
  <Document id="featureCollection">
<Style id="defaultStyle">
    <LineStyle>
    <width>1.5</width>
  </LineStyle>
  <PolyStyle>
    <color>7d8a30c4</color>
  </PolyStyle>
</Style>
  <Folder><Placemark>
      <styleUrl>#defaultStyle</styleUrl>
      <Point><coordinates>
      108.99932,34.386062
    </coordinates></Point>
      <name>夏家堡小学</name>
    </Placemark><Placemark>
      <styleUrl>#defaultStyle</styleUrl>
      <Point><coordinates>
      108.998896,34.383364
    </coordinates></Point>
      <name>夏家堡幼儿园</name>
    </Placemark><Placemark>
      <styleUrl>#defaultStyle</styleUrl>
      <Point><coordinates>
      109.000971,34.377972
    </coordinates></Point>
      <name>启智幼儿园</name>
    </Placemark><Placemark>
      <styleUrl>#defaultStyle</styleUrl>
      <Point><coordinates>
      109.004890,34.376537
    </coordinates></Point>
      <name>第五污水处理厂(公交站)</name>
    </Placemark><Placemark>
      <styleUrl>#defaultStyle</styleUrl>
      <Point><coordinates>
      109.006355,34.383549
    </coordinates></Point>
      <name>惠泽居小区(公交站)</name>
    </Placemark><Placemark>
      <styleUrl>#defaultStyle</styleUrl>
      <Point><coordinates>
      108.999588,34.380688
    </coordinates></Point>
      <name>上庄村(公交站)</name>
    </Placemark><Placemark>
      <styleUrl>#defaultStyle</styleUrl>
      <Point><coordinates>
      108.998779,34.380699
    </coordinates></Point>
      <name>上庄村(公交站)</name>
    </Placemark><Placemark>
      <styleUrl>#defaultStyle</styleUrl>
      <Point><coordinates>
      108.998329,34.385693
    </coordinates></Point>
      <name>医学院新校区(公交站)</name>
    </Placemark><Placemark>
      <styleUrl>#defaultStyle</styleUrl>
      <Point><coordinates>
      109.006142,34.382957
    </coordinates></Point>
      <name>浐灞惠泽居小区(公交站)</name>
    </Placemark></Folder>  </Document>
  </kml>